[
  {
    "id": "liverpool-procedures",
    "name": "Liverpool Heart and Chest Hospital",
    "city": "Liverpool",
    "country": "United Kingdom",
    "region": "United Kingdom",
    "lat": 53.4287,
    "lng": -2.9044,
    "role": "operated",
    "years": "2007 - present",
    "blurb": "Consultant cardiologist and electrophysiologist at the UK's largest specialist cardiothoracic centre, performing 300+ AF ablations a year.",
    "images": [],
    "readMore": "/journey",
    "url": ""
  },
  {
    "id": "london-procedures",
    "name": "London procedure work",
    "city": "London",
    "country": "United Kingdom",
    "region": "United Kingdom",
    "lat": 51.5072,
    "lng": -0.1276,
    "role": "operated",
    "years": "Procedure location",
    "blurb": "London remains one of the core procedure locations in Professor Gupta's clinical practice.",
    "images": [],
    "url": ""
  },
  {
    "id": "barts-heart-institute",
    "name": "Barts Heart Institute",
    "city": "London",
    "country": "United Kingdom",
    "region": "United Kingdom",
    "lat": 51.5174,
    "lng": -0.1002,
    "role": "taught",
    "years": "12 May 2016; 11 Aug 2016",
    "blurb": "Cardiology training visit in London as part of Dr Gupta's wider programme of specialist teaching work.",
    "images": [],
    "url": ""
  },
  {
    "id": "harley-street-hospital",
    "name": "Harley Street Hospital",
    "city": "London",
    "country": "United Kingdom",
    "region": "United Kingdom",
    "lat": 51.522,
    "lng": -0.147,
    "role": "taught",
    "years": "08 Dec 2018",
    "blurb": "Cardiology training work delivered in London for clinicians involved in advanced rhythm care.",
    "images": [],
    "url": ""
  },
  {
    "id": "blackpool-victoria-hospital",
    "name": "Blackpool Victoria Hospital",
    "city": "Blackpool",
    "country": "United Kingdom",
    "region": "United Kingdom",
    "lat": 53.821,
    "lng": -3.017,
    "role": "taught",
    "years": "26 Feb 2019; 26 Mar 2019; 4 June 2019; 25 Aug 2020",
    "blurb": "Repeated cardiology training visits in Blackpool, supporting local rhythm teams across multiple sessions.",
    "images": [],
    "url": ""
  },
  {
    "id": "qe-hospital-birmingham",
    "name": "QE Hospital, Birmingham",
    "city": "Birmingham",
    "country": "United Kingdom",
    "region": "United Kingdom",
    "lat": 52.4536,
    "lng": -1.9385,
    "role": "taught",
    "years": "27 Aug 2020",
    "blurb": "Cardiology training session delivered at Queen Elizabeth Hospital Birmingham.",
    "images": [],
    "url": ""
  },
  {
    "id": "new-cross-hospital-wolverhampton",
    "name": "New Cross Hospital Wolverhampton",
    "city": "Wolverhampton",
    "country": "United Kingdom",
    "region": "United Kingdom",
    "lat": 52.599,
    "lng": -2.096,
    "role": "taught",
    "years": "07 Oct 2022; 16 Dec 2023",
    "blurb": "Cardiology training work with the Wolverhampton team across two later visits.",
    "images": [],
    "url": ""
  },
  {
    "id": "university-hospital-wels",
    "name": "University Hospital, Wels",
    "city": "Wels",
    "country": "Austria",
    "region": "Europe",
    "lat": 48.1608,
    "lng": 14.0216,
    "role": "taught",
    "years": "1 Sep 2016",
    "blurb": "European cardiology training visit supporting electrophysiology practice in Wels.",
    "images": [],
    "url": ""
  },
  {
    "id": "blackrock-clinic",
    "name": "Blackrock Clinic",
    "city": "Dublin",
    "country": "Ireland",
    "region": "Europe",
    "lat": 53.303,
    "lng": -6.187,
    "role": "taught",
    "years": "23 Feb 2018",
    "blurb": "Cardiology training visit in Dublin for clinicians involved in arrhythmia care.",
    "images": [],
    "url": ""
  },
  {
    "id": "st-vincents-indianapolis",
    "name": "St. Vincent's Hospital",
    "city": "Indianapolis",
    "country": "United States",
    "region": "United States",
    "lat": 39.9098,
    "lng": -86.1917,
    "role": "taught",
    "years": "7 Aug 2017",
    "blurb": "US cardiology training visit in Indianapolis as part of Dr Gupta's teaching programme.",
    "images": [],
    "url": ""
  },
  {
    "id": "vanderbilt-hospital",
    "name": "Vanderbilt Hospital",
    "city": "Nashville",
    "country": "United States",
    "region": "United States",
    "lat": 36.1417,
    "lng": -86.8027,
    "role": "taught",
    "years": "8 Aug 2017",
    "blurb": "Cardiology training work with clinicians at Vanderbilt in Nashville.",
    "images": [],
    "url": ""
  },
  {
    "id": "crj-wichita",
    "name": "CRJ, Wichita",
    "city": "Wichita",
    "country": "United States",
    "region": "United States",
    "lat": 37.6872,
    "lng": -97.3301,
    "role": "taught",
    "years": "22 Aug 2017",
    "blurb": "Cardiology training visit in Wichita, Kansas, supporting advanced rhythm care.",
    "images": [],
    "url": ""
  },
  {
    "id": "ochsner-hospital",
    "name": "Ochsner Hospital",
    "city": "New Orleans",
    "country": "United States",
    "region": "United States",
    "lat": 29.961,
    "lng": -90.145,
    "role": "taught",
    "years": "23 Aug 2017",
    "blurb": "Cardiology training work in New Orleans with the Ochsner team.",
    "images": [],
    "url": ""
  },
  {
    "id": "emory-hospital",
    "name": "Emory Hospital",
    "city": "Atlanta",
    "country": "United States",
    "region": "United States",
    "lat": 33.7925,
    "lng": -84.319,
    "role": "taught",
    "years": "25 Aug 2017",
    "blurb": "US cardiology training visit with the Emory Hospital team in Atlanta.",
    "images": [],
    "url": ""
  },
  {
    "id": "baylor-hospital-fort-worth",
    "name": "Baylor Hospital",
    "city": "Fort Worth",
    "country": "United States",
    "region": "United States",
    "lat": 32.7357,
    "lng": -97.335,
    "role": "taught",
    "years": "12 Dec 2017",
    "blurb": "Cardiology training work in Fort Worth, Texas, as part of the US teaching programme.",
    "images": [],
    "url": ""
  },
  {
    "id": "winthrop-medical-center",
    "name": "Winthrop Medical Center",
    "city": "New York",
    "country": "United States",
    "region": "United States",
    "lat": 40.741,
    "lng": -73.641,
    "role": "taught",
    "years": "23 May 2018",
    "blurb": "Cardiology training visit in New York for clinicians involved in rhythm services.",
    "images": [],
    "url": ""
  },
  {
    "id": "baptist-hospital-jacksonville",
    "name": "Baptist Hospital",
    "city": "Jacksonville",
    "country": "United States",
    "region": "United States",
    "lat": 30.316,
    "lng": -81.663,
    "role": "taught",
    "years": "24 May 2018",
    "blurb": "US cardiology training visit with the Baptist Hospital team in Jacksonville.",
    "images": [],
    "url": ""
  },
  {
    "id": "baptist-hospital-miami",
    "name": "Baptist Hospital",
    "city": "Miami",
    "country": "United States",
    "region": "United States",
    "lat": 25.689,
    "lng": -80.338,
    "role": "taught",
    "years": "25 May 2018",
    "blurb": "Cardiology training visit in Miami as part of Dr Gupta's US teaching work.",
    "images": [],
    "url": ""
  },
  {
    "id": "marin-health-medical-center",
    "name": "Marin Health Medical Center",
    "city": "Greenbrae",
    "country": "United States",
    "region": "United States",
    "lat": 37.949,
    "lng": -122.535,
    "role": "taught",
    "years": "10 Jan 2022",
    "blurb": "Cardiology training work at Marin Health Medical Center in California.",
    "images": [],
    "url": ""
  },
  {
    "id": "sutter-health-sacramento",
    "name": "Sutter Health Sacramento",
    "city": "Sacramento",
    "country": "United States",
    "region": "United States",
    "lat": 38.573,
    "lng": -121.468,
    "role": "taught",
    "years": "11 Jan 2022",
    "blurb": "Cardiology training visit with the Sutter Health team in Sacramento.",
    "images": [],
    "url": ""
  },
  {
    "id": "st-charles-hospital-bend",
    "name": "St. Charles Hospital",
    "city": "Bend",
    "country": "United States",
    "region": "United States",
    "lat": 44.067,
    "lng": -121.269,
    "role": "taught",
    "years": "12 Jan 2022; 13 Jan 2022",
    "blurb": "Two cardiology training sessions delivered at St. Charles Hospital in Bend, Oregon.",
    "images": [],
    "url": ""
  },
  {
    "id": "stanford-hospital",
    "name": "Stanford Hospital",
    "city": "Stanford",
    "country": "United States",
    "region": "United States",
    "lat": 37.433,
    "lng": -122.175,
    "role": "taught",
    "years": "14 Jan 2022",
    "blurb": "Cardiology training visit at Stanford Hospital in California.",
    "images": [],
    "url": ""
  },
  {
    "id": "woodlands-hospital-houston",
    "name": "Woodlands Hospital",
    "city": "Houston",
    "country": "United States",
    "region": "United States",
    "lat": 30.177,
    "lng": -95.455,
    "role": "taught",
    "years": "02 May 2022",
    "blurb": "Cardiology training work in the Woodlands area of Houston.",
    "images": [],
    "url": ""
  },
  {
    "id": "aurora-st-luke-milwaukee",
    "name": "Aurora St Luke Milwaukee",
    "city": "Milwaukee",
    "country": "United States",
    "region": "United States",
    "lat": 42.991,
    "lng": -87.95,
    "role": "taught",
    "years": "03 May 2022",
    "blurb": "Cardiology training visit at Aurora St Luke in Milwaukee.",
    "images": [],
    "url": ""
  },
  {
    "id": "university-of-michigan-ann-arbor",
    "name": "University of Michigan",
    "city": "Ann Arbor",
    "country": "United States",
    "region": "United States",
    "lat": 42.283,
    "lng": -83.728,
    "role": "taught",
    "years": "04 May 2022",
    "blurb": "Cardiology training work at the University of Michigan in Ann Arbor.",
    "images": [],
    "url": ""
  },
  {
    "id": "texas-medical-centre-houston",
    "name": "Texas Medical Centre",
    "city": "Houston",
    "country": "United States",
    "region": "United States",
    "lat": 29.708,
    "lng": -95.397,
    "role": "taught",
    "years": "05 May 2022",
    "blurb": "Cardiology training visit at the Texas Medical Centre in Houston.",
    "images": [],
    "url": ""
  },
  {
    "id": "university-of-colorado-hospital",
    "name": "University of Colorado Hospital",
    "city": "Denver",
    "country": "United States",
    "region": "United States",
    "lat": 39.742,
    "lng": -104.841,
    "role": "taught",
    "years": "06 May 2022",
    "blurb": "Cardiology training work at the University of Colorado Hospital in Denver.",
    "images": [],
    "url": ""
  },
  {
    "id": "mercy-south-st-louis",
    "name": "Mercy South",
    "city": "St Louis",
    "country": "United States",
    "region": "United States",
    "lat": 38.514,
    "lng": -90.38,
    "role": "taught",
    "years": "16 May 2022",
    "blurb": "Cardiology training visit at Mercy South in St Louis.",
    "images": [],
    "url": ""
  },
  {
    "id": "memorial-medical-centre-lufkin",
    "name": "Memorial Medical Centre",
    "city": "Lufkin",
    "country": "United States",
    "region": "United States",
    "lat": 31.337,
    "lng": -94.729,
    "role": "proctored",
    "years": "17 May 2022",
    "blurb": "Proctoring visit at Memorial Medical Centre in Lufkin, supporting local operators during clinical work.",
    "images": [],
    "url": ""
  },
  {
    "id": "st-cloud-minnesota",
    "name": "St. Cloud",
    "city": "St. Cloud",
    "country": "United States",
    "region": "United States",
    "lat": 45.557,
    "lng": -94.166,
    "role": "proctored",
    "years": "20 May 2022",
    "blurb": "Proctoring visit in St. Cloud, Minnesota, supporting clinicians during advanced cardiology procedures.",
    "images": [],
    "url": ""
  },
  {
    "id": "mumbai-procedures",
    "name": "Mumbai London AF Clinic, Mumbai",
    "city": "Mumbai",
    "country": "India",
    "region": "India",
    "lat": 19.076,
    "lng": 72.8777,
    "role": "operated",
    "years": "2026 - present",
    "blurb": "In-person consultations and ablation procedures during scheduled Mumbai visits, with local follow-up between visits.",
    "images": [],
    "url": ""
  },
  {
    "id": "delhi-procedures",
    "name": "Delhi procedure work",
    "city": "Delhi",
    "country": "India",
    "region": "India",
    "lat": 28.6139,
    "lng": 77.209,
    "role": "operated",
    "years": "Procedure location",
    "blurb": "Delhi is included as one of the procedure locations connected to Professor Gupta's India work.",
    "images": [],
    "url": ""
  },
  {
    "id": "pondicherry-training",
    "name": "Pondicherry training work",
    "city": "Pondicherry",
    "country": "India",
    "region": "India",
    "lat": 11.9416,
    "lng": 79.8083,
    "role": "taught",
    "years": "Training work in India",
    "blurb": "Training work in Pondicherry, supporting local cardiologists in advanced rhythm care.",
    "images": [],
    "url": ""
  },
  {
    "id": "kolkata-training",
    "name": "Kolkata training work",
    "city": "Kolkata",
    "country": "India",
    "region": "India",
    "lat": 22.5726,
    "lng": 88.3639,
    "role": "taught",
    "years": "Training work in India",
    "blurb": "Training work in Kolkata, supporting local cardiologists in advanced rhythm care.",
    "images": [],
    "url": ""
  }
]
